[{
        "id": 0,
        "name": "BW SUITE Belitung",
        "lng": 107.6290859,
        "lat": -2.7280935,
        "description": "",
        "premium": false,
        "count": 0,
        "category": "hotel",
        "rate": 4.1,
        "photo_reference": "CmRaAAAAnWokTMP2l3d9wRR8Gq54dXHNrgvwL324_8ywiXQ97rLjHoZEtxAgpxdyrVTJMQ8W_bWdhl4Q3EhV-s811Tvy9C4t3pN1pHozve82X1mEzlJe9W4zmCBvRmRKFpmtnauHEhBp2mgV40JKhkMR1h-EyebvGhQ_8Kvnp-6sVvcx7AX8WwChuAyTrQ"
    },
    {
        "id": 1,
        "name": "Grand Hatika Hotel",
        "lng": 107.6261445,
        "lat": -2.7404209,
        "description": "",
        "premium": false,
        "count": 0,
        "category": "hotel",
        "rate": 4,
        "photo_reference": "CmRaAAAAHBWk_A5NRDU0DNgX6jKu7nlwqNsGwVEc3gFo83kZw9E4TM7F9JJMbYyGKuq4UhFKp16O1dGsP0PcWzTAUztDUEQem4nd5nXfT1HwTDd-_G0cbAfM43VHEAtBdBDSLNx2EhC4RXfVA9yHS0Zpgdg4d3uxGhRjrH3TRzLhDV-vAlGprz17QbtTbQ"
    }, {
        "id": 2,
        "name": "Mendanau Belitung Hotel",
        "lng": 107.6310574,
        "lat": -2.741614499999999,
        "description": "",
        "premium": false,
        "count": 0,
        "category": "hotel",
        "rate": 3,
        "photo_reference": "CmRaAAAAHrtPuJ8hNcHIjXOUOp_dKxitL_-CXs9HTNIzAaawdh1xEl2yYH07KvnhA3WN2OYrOAbSqU1SBuuhEih4OW3JQCaDU0PzCAT6Wn_GamHDTbk50hU_Ly5F8xagiOHRYHTMEhCR14K93NH2vAtUB5U63fl3GhS9Iyo299i8rWTjT3hMe3CwlbxqzQ"
    }, {
        "id": 3,
        "name": "Hotel Harlika Jaya",
        "lng": 107.6262492,
        "lat": -2.7382327,
        "description": "",
        "premium": false,
        "count": 0,
        "category": "hotel",
        "rate": 3.5,
        "photo_reference": "CmRaAAAAtGiDsWdsiyzjUTKi0lEbNRXh4sDiIuPT_tyuRdSUr1PzuweBn2EHyNRVK7hr-F2WS-Kz5m4RjTGPIdhU--HiRGYqalM061O0J3kFcQWnI7KjVXWFFi13-mi9GqBrZSwvEhD3d7I0cP4dt5_yU_JJmSEJGhRu5Ggf5p-SMim4PKTvFNXdi5Xv5g"
    }, {
        "id": 4,
        "name": "Hotel Demuon",
        "lng": 107.6516122,
        "lat": -2.748255299999999,
        "description": "",
        "premium": false,
        "count": 0,
        "category": "hotel",
        "rate": 3.3,
        "photo_reference": "CmRaAAAAmfgHSxiwGpRZUGeFUyhHY2oUgK7q13FH2AnZ0AC8fZBC8uK69KimUQxHmLZeBREdTEuhe-ejZC6wk8g-KV5m-nZC31GpPffq7CWh-unwzkpP0_Rcb6jS2UR6b7P45hG_EhDQy7-UM56SGAGyvUImwKfPGhSWnmLNcehisQY58httWICaeerSVg"
    }, {
        "id": 5,
        "name": "Hotel Lux Melati",
        "lng": 107.6286701,
        "lat": -2.7421412,
        "description": "",
        "premium": false,
        "count": 0,
        "category": "hotel",
        "rate": 3.6,
        "photo_reference": "CmRaAAAAkRAQaFn1bJmWcXE5gi5hel_onKZYOSbaFGrWF7cjLUvklNKWYb9XEeYChsFVm6GNwOMYfMgs3WDgSS4ZTRJYog9KyMgWtuGygwf8UDu1216fsurS2TdrLiigY2bbM7UpEhB3fkBs-en7YyIEFE4UnPbQGhQr_dkfmWOA8S7VSAxSaW8M6_RKPA"
    }, {
        "id": 6,
        "name": "Hotel Sarila",
        "lng": 107.6409649,
        "lat": -2.7374849,
        "description": "",
        "premium": false,
        "count": 0,
        "category": "hotel",
        "rate": 4.2,
        "photo_reference": "CmRaAAAAItJdRbC9rzFkSQuEml6oQW1mkNJOg9NG_0kpx-XXD-_u5_aldmVBW1fSPy3HBO3SVmDmhu96JS0cNZznrw_jOjco41yzW7rpKwiPd-71xG7Va4_oWXDIBsBpLQh_zzF-EhBuaYJ9JMSgT4CVG-ZEjDi7GhRI0VfBg1Eq7zUAOUYVOJghuazP1g"
    }, {
        "id": 7,
        "name": "eSBe Hotel",
        "lng": 107.6472939,
        "lat": -2.7457959,
        "description": "",
        "premium": false,
        "count": 0,
        "category": "hotel",
        "rate": 3.9,
        "photo_reference": "CmRaAAAAYL05uAMgDON4NqJSPss9zVV1iZ_Rb85lfWVMTzc_GPBiY4NjzT9jyp0j5LsSwrtE01JKvT37_Quy7d92Cr3W6tbtBEtYXjxojcPnanUMHnxDXVCMrq0naSMiPUJJMwg5EhBA2veXBw_tHEfswEhnFdSYGhRp--RRhU2eYjNGD0mls6SX72SWlA"
    }, {
        "id": 8,
        "name": "Rahat Icon Hotel",
        "lng": 107.6384372,
        "lat": -2.738881,
        "description": "",
        "premium": false,
        "count": 0,
        "category": "hotel",
        "rate": 4,
        "photo_reference": "CmRaAAAAXNeI99jnb4IeppgjrFZtrrCLsaFNlmssUvuiyDQEevThJm2JESOONhWULTRFUn1jkID5Cqc79ZJJeMl2FjAZclhhJaT_sgP7axl1xFgEL-9d24Vpe5nxqfys0VM88A-CEhD8VFtf1dHMwaIVjn095lxQGhRRZkZTUukgQpWEwhCvurjlmW80Ag"
    }, {
        "id": 9,
        "name": "Pelangi Lake Resort",
        "lng": 107.6657984,
        "lat": -2.7237438,
        "description": "",
        "premium": false,
        "count": 0,
        "category": "hotel",
        "photo_reference": ""
    }, {
        "id": 10,
        "name": "dric's House",
        "lng": 107.6729507,
        "lat": -2.7429205,
        "description": "",
        "premium": false,
        "count": 0,
        "category": "hotel",
        "rate": 4,
        "photo_reference": ""
    }, {
        "id": 11,
        "name": "Billiton Hotel & Klub",
        "lng": 107.632401,
        "lat": -2.739874,
        "description": "",
        "premium": false,
        "count": 0,
        "category": "hotel",
        "rate": 4.1,
        "photo_reference": "CmRaAAAAHHLYXFlikzz88m0UAgSHqA59w45HnSdmE-yWJBzca47fsW5J6gY6N0L_47eVz9Ee-WeKBOqhrHXex1uJbU4unb5Ay2XQw0atpjKg2cJ3TQ55Kb3zmCAlt5mTutYe8HZDEhDmrNhBwmFemv9u1ONvSH4vGhRlKg90tqnYon_xcZnGTL3WLbiqVg"
    }, {
        "id": 12,
        "name": "Tamara Hotel",
        "lng": 107.6517017,
        "lat": -2.7459132,
        "description": "",
        "premium": false,
        "count": 0,
        "category": "hotel",
        "rate": 3.8,
        "photo_reference": ""
    }, {
        "id": 13,
        "name": "Cakra Buana Bangka Belitung Tour Travel",
        "lng": 107.6320186,
        "lat": -2.726068,
        "description": "",
        "premium": false,
        "count": 0,
        "category": "hotel",
        "rate": 4.3,
        "photo_reference": "CmRaAAAAeu8yYaxj7cOL4_9AjcG3IVTV-5hTICcpe3bma-GNrgLWYsiak8m6tCEBxXJdN4YUz-masDbVVE5M0iNR5-K3XlouGt9rxy-vg-1AooF8ZYXfalNsAd4a_QoX_F3jwuTDEhDoLNufAByxi-fUuRvUushpGhQX6AceMNSLWpqiWt1KSOJzGijqfg"
    }, {
        "id": 14,
        "name": "Lor IN Belitung Hotel & Resort",
        "lng": 107.7011968,
        "lat": -2.561821,
        "description": "",
        "premium": false,
        "count": 0,
        "category": "hotel",
        "rate": 3.7,
        "photo_reference": "CmRaAAAAaHLELE-9WdjhuODY8bOs-21fOuW5m5Io2nOlXd26AHbpVgyk1xYksP4HIjX1a9IX1BnFw9G7zjbnnCF9DhXa5-4b2abmUCY2nj0tI4jSmZyTX9tzYDN0gq7K_w4Wne9pEhCmJ2JIp9viaB41q0x8jwEGGhThxy1WzKbwYCItgrT0XOCTTmWBeQ"
    }, {
        "id": 15,
        "name": "KFC",
        "lng": 107.6349686,
        "lat": -2.7393937,
        "description": "",
        "premium": false,
        "count": 0,
        "category": "restorant",
        "rate": 3.8,
        "photo_reference": "CmRaAAAAxlXI1hKr_y1-tDRXbyckjRGVZrsn9utV0u66KsVy8OUma_ZPgOOam-XJm5wRK7W7NqJqiKv_XWQ3KWpIJ0Lg08IkkwRqVXQBkiiztUY1w3XqGho9-3oZsE4mE63gj_a9EhDX2ObibfHBatP7f4J5B8pSGhTCpgP77SoQaf-OEZW4at9P1Eur1w"
    }, {
        "id": 16,
        "name": "Mie Belitung Atep",
        "lng": 107.6339897,
        "lat": -2.7397037,
        "description": "",
        "premium": false,
        "count": 0,
        "category": "restorant",
        "rate": 4,
        "photo_reference": "CmRaAAAAaLxM7vxnA5QYAdtNkdCbC6VlA2RAryI-e_LPWLUr9OzOCSmF86Rm3dqQBTcLEvH5cI5UYVlwnQvUjVc_PR6oli_FiCToNh7ii4qvMH4fmI__s5JZK2EyJeXZDlPPiyroEhDOQ2xCVno8UgfBFY7epKejGhSO9aI4kRnBPU1h9jGNbAJQoZ_nSQ"
    }, {
        "id": 17,
        "name": "Wisata Kuliner Belitong",
        "lng": 107.6301548,
        "lat": -2.7413791,
        "description": "",
        "premium": false,
        "count": 0,
        "category": "restorant",
        "rate": 3.7,
        "photo_reference": "CmRaAAAACj20hkacXLKI-5RZMO3DrnYQ-S2yMlgwiprO6zGMRxU4ATRru2NxVt_gSS_A3WUDU6ki01Jr2iT2LtQJJJoIdgH0SxfkPhArQp5LGLnmMnBWUkZw7sEq4NwlmHAW8J2wEhA1fkgn68eYTbylxRQRex0TGhSOwoEiGqU6A-3zfpL_1PNde76ScQ"
    }, {
        "id": 18,
        "name": "Saung Askar",
        "lng": 107.6389548,
        "lat": -2.7418523,
        "description": "",
        "premium": false,
        "count": 0,
        "category": "restorant",
        "photo_reference": "CmRaAAAAu2vEIZm4iekvlhHuKdk4EI02V4nmMo42dDwqhWCQS_HYsUzV4eMPmqPdRsLehrwSe-CH3f7_UalhZy2NTDgMqFIeVo3r_DJJHFJx-_nUDxYpO6ohwnYcH_oBeap43hu1EhAdIc7rs76QvpCNtInRO7QGGhSwnDMbyoRrRMJ1_yyi7NiK4-OcIw"
    }, {
        "id": 19,
        "name": "Teras Vanilla",
        "lng": 107.6402343,
        "lat": -2.7431583,
        "description": "",
        "premium": false,
        "count": 0,
        "category": "restorant",
        "rate": 4,
        "photo_reference": "CmRaAAAAwInp0EO2OaIt0qifTiDpTdK-_jFvQjEm-qLYI05Phq-OWh0tDK5mg08iIBPKtXDZMPRAPU5JTQF2MYPA1BYIXnx4ELLzEuvU1vo77ydTGw_rEsqLBtGYjaPIpg2MYahEEhDHQdMLdUObDsXa_4S3J1u8GhSozmryugyG-_J9pNR0tLU4nrzUFA"
    }, {
        "id": 20,
        "name": "Siomay Baywatch 2",
        "lng": 107.6255275,
        "lat": -2.7401381,
        "description": "",
        "premium": false,
        "count": 0,
        "category": "restorant",
        "photo_reference": ""
    }, {
        "id": 21,
        "name": "Bahari Resto & Pub",
        "lng": 107.6252907,
        "lat": -2.7409778,
        "description": "",
        "premium": false,
        "count": 0,
        "category": "restorant",
        "rate": 3.5,
        "photo_reference": "CmRaAAAAgqe_dbJ-b9WxqoL6ehg45lpWelrsEC5Bq13DfcQCIR78tAZc8IOOfj9aXbi2_iMOBgAvBK4faO6C7X3G5saZvY7AahC1ViMIqSopTFzlxexEOGOkV2onWHrSwVbSwn-PEhChi-gUGtJ9t9UZfnGYtboQGhTHzu8VvwasdfAC9RGLnbbfSUu4Tw"
    }, {
        "id": 22,
        "name": "Unique Bistro & Karaoke",
        "lng": 107.625329,
        "lat": -2.741225,
        "description": "",
        "premium": false,
        "count": 0,
        "category": "restorant",
        "rate": 4.4,
        "photo_reference": "CmRaAAAAkfUhUuqrTihtaPofys0RYI7jkCeUOmWxa4L-XaBeYHZyPG6In4ykGLk3BMFtxBfn1nNvezhY77QHsXXEy71DsABwHZI_HqLrVBZzBiF3Jltd4EkUH9SNTkHl5jh_31xSEhAYZH8v6Eo0e_9Xl3iiCC6mGhQH-j0eH6cu2x8qBrVvDXviH7eINw"
    }, {
        "id": 23,
        "name": "Restoran Thai Fa",
        "lng": 107.6275797,
        "lat": -2.733498,
        "description": "",
        "premium": false,
        "count": 0,
        "category": "restorant",
        "rate": 3.8,
        "photo_reference": "CmRaAAAAe5hXBrxCYvZ_00krsJbIdpHcGBU-XpAHKlTLY-3eOWdzYfSJFVeSzTyJIKjRNx6i9kI1m2jfA9ClOhtq9vPkXBqCZVy3HeK7Ytr2H4t4aUFFn6oEkUaLqksXGJo_zk1_EhBZhbB0spCReOb4MgIrUpYTGhSQc_iW8XxnbUxX9CGt3MAlOxYf0Q"
    }, {
        "id": 24,
        "name": "Pempek Mama Rio",
        "lng": 107.6364379,
        "lat": -2.7306457,
        "description": "",
        "premium": false,
        "count": 0,
        "category": "restorant",
        "photo_reference": "CmRaAAAA12EBGLz4uVR0u55nRVkrVifkpOxK9eKy13nbyeO63cUoPoNw4YaViguXquliUV6yy-Q0xoljIWkFC6RgEW8SIAUWM7vGdC6OFJ-ypI8mUUJaahxa9MX9cqjuCFSLhI7BEhCeDpB0yjPWL9aMR7Dh-uq8GhTgJHB4J8xaGudd__sQWY7gvzn7WA"
    }, {
        "id": 25,
        "name": "MR JO Seafood",
        "lng": 107.6361787,
        "lat": -2.7257147,
        "description": "",
        "premium": false,
        "count": 0,
        "category": "restorant",
        "rate": 4.6,
        "photo_reference": "CmRaAAAADTONynSK0ED7_Ykb6FFLozLnR61fyGSFBCpF74a7nGSMlbYaKXJ_NSpsEx_-JAJtuFWzkCw0wq6WWT35O3A2XSF0IZDtwvK3S54JGaKp06Yp-aX6NZNZzs61ENao2fw7EhB-HnHBZokXL611dd1V01vdGhSabClRjJ2WfQSf1TvXZd00cvqzjA"
    }, {
        "id": 26,
        "name": "Empek Empek Mak Putri",
        "lng": 107.6391516,
        "lat": -2.7246387,
        "description": "",
        "premium": false,
        "count": 0,
        "category": "restorant",
        "rate": 4,
        "photo_reference": "CmRaAAAAazeQiFvYeBmoF-_1OZCY-r0ueBF40i8CykD2r7F4QfgWY8YPC7fEMGOqnDhchPO3uH-gv7Iu0VH3sOPuMYy182CqQEFUodWY0Lm5IaA6GneZM3fQdScBR7gyCm8qGy24EhDp2JYaUKYDjt2pYI6WBxnzGhRgF1wvQFC2zVvuW5PFIwxtO5HC-Q"
    }, {
        "id": 27,
        "name": "SONGSUI KIMMOI",
        "lng": 107.654437,
        "lat": -2.731261,
        "description": "",
        "premium": false,
        "count": 0,
        "category": "restorant",
        "rate": 5,
        "photo_reference": "CmRaAAAA7lOTfFBuLryxKYuALLYbAXKRhg6RvEy2Tzc4SzWjbNGfVODC7LvWjRzRggJ-L2I3g6TXKYkLY0SXLAB4dabOjw8f2Mon1S4wm2anP77O9trW8i0DcI9RNFDAghnXVnHOEhCKtpW63XwgrlUJDrigvccZGhSVshRr68KAqb6LMfBtmO3KLkzjyw"
    }, {
        "id": 28,
        "name": "AL KHOIR DIGITAL",
        "lng": 107.6532219,
        "lat": -2.7565119,
        "description": "",
        "premium": false,
        "count": 0,
        "category": "restorant",
        "photo_reference": "CmRaAAAAxp24SpDtZhv-T5leYSBEAEM_u3SiXQSUWex3InZ7jE0aeV7GxMqcJkUz0RXnVKgvyL2hFDUYAbsGpNttYXjRJ2J_wNUbtS4qaKjRmBhIbHZ65kvuYkszaG97Qp0eCH19EhBt9KIC1bQFs0SLRwew7BwdGhTSl358MdCUzmeSxen9gdCcsYN89w"
    }, {
        "id": 29,
        "name": "Dapur Bang Jo",
        "lng": 107.6586003,
        "lat": -2.7273919,
        "description": "",
        "premium": false,
        "count": 0,
        "category": "restorant",
        "rate": 5,
        "photo_reference": "CmRaAAAAiMHE-BgT49M6hB8iuQFi0Pl7KmEGfs7oC5ASCIJFoOYiUC1r81mUDrkh_LCe2mg1xVP7Exwm9WDSKSYqKIVSiBmWm6XeD2V-MyKFRSepeD9hwzZQFqR0wCbMZ6IU0JTXEhCEetQAkjDtETz8MMbhqBfbGhQ9NbxtLCk9hlz6pSUH6Aa7ACh1Gg"
    }, {
        "id": 30,
        "name": "warung lele kriuk",
        "lng": 107.664541,
        "lat": -2.74464,
        "description": "",
        "premium": false,
        "count": 0,
        "category": "restorant",
        "rate": 4,
        "photo_reference": "CmRaAAAA1Tv1ST5oem4r9B_90RqJHSQa_ScA-MzQKdbHNR9VMnEZ8DAdB85sTSKjC2NUXvTN3H5ZQTDzVa0klN37ZnS8eNTShCID1rYkX-SJM3zZY-8gszQitDZzYEIdtFKXo5WLEhAoFvDsk1_8-6bHtoXZmsTXGhT93ttpBy8PDr6R_KN2pNIFD-uwUg"
    }, {
        "id": 31,
        "name": "Warung Piscok Meler",
        "lng": 107.6646943,
        "lat": -2.744368,
        "description": "",
        "premium": false,
        "count": 0,
        "category": "restorant",
        "rate": 5,
        "photo_reference": "CmRaAAAA8gOaL8vj018MK-HPL-1xMCh21EtmPEivzEnQIOeyA15GmoBij_tkSGJUgKyGlqwnM7bmzQ89F9s4ySpwwOUmG5PXXSbC1mGZkjYPlrlWsyR16hfIJZWQVN1YGVeOYp_pEhBAl5ytUR5zxMJ7-vgRF26fGhRItYOpKuVnCsVJFC0Il2e3wsEY8Q"
    }, {
        "id": 32,
        "name": "Pandan House Restaurant",
        "lng": 107.6710153,
        "lat": -2.7199068,
        "description": "",
        "premium": false,
        "count": 0,
        "category": "restorant",
        "rate": 4.3,
        "photo_reference": "CmRaAAAA-mMk44bewAQAdwK_2HJAK6rHggzlr278l1C8Zs2Jru3IvaS4kXrh5iBI31cX2sdOOqQU9Q3P6arV-iwB1z4GaOEjYLKfJ9NR6iuCEspgsxXf8JHn38icKVzg5BaZsdK8EhDjQKWZF8Q78rtsVl2k9SiAGhTa_rOwc1pHJGcb2Xh8KqXhQMeS7A"
    }, {
        "id": 33,
        "name": "Kedai SS",
        "lng": 107.6777567,
        "lat": -2.7454564,
        "description": "",
        "premium": false,
        "count": 0,
        "category": "restorant",
        "rate": 3.8,
        "photo_reference": "CmRaAAAA7WMz2tiGYV3WXlTtBuA36YfCYgb1vMKWXpKYD_bcpMGbON7QdcidqAZXXK-lWH2E3Nnmkhpfr-gB0VjAU2B-l6OGc43zxXmwYJzZozeZSIgiQlCVplwrJUMr10mRFXysEhCaObd3iK4RKG8J47E9_MY2GhRLMccyKa4Vwz2rGHE5t59KqCCJCg"
    }, {
        "id": 34,
        "name": "RM Grago Point ( Traditional & Authentic Resto)",
        "lng": 107.63128,
        "lat": -2.68624,
        "description": "",
        "premium": false,
        "count": 0,
        "category": "restorant",
        "rate": 4,
        "photo_reference": "CmRaAAAASgFe1C4IFmaXkeB_vYqO8zCwXvCG5hpmeijNJbeesPJVlNVxysDI2DP6SC3rRu1-ZyJ0C6nTIo1ksmKqxYLLPBQ3yH_OpoW9CzYSeo_pxjhBoOffZWXGLlOYFie4cdZlEhBEmWx3nCm7rrWKDbHsnNyeGhT36TBk1CDqTjKdDpNItXXVOPlQ2A"
    }, {
        "id": 35,
        "name": "RM. LILI",
        "lng": 107.6726353,
        "lat": -2.5609987,
        "description": "",
        "premium": false,
        "count": 0,
        "category": "restorant",
        "rate": 4,
        "photo_reference": "CmRaAAAAGQ_No96feTUJ245qr9WDbV0hoaof4fdDm63nZ4txPRL5LRUmfbITJdLrLgBF2lyXahEHp0Y_p7N7-U7dd99-1LSfG-1eN15ZurGyV8gbeBnFFpSkExYEoNszI0vZLh_vEhCAKfp_Xzs_D5BgNEV4IAz8GhQxnzBxqhP7zqNn93eehXnsD0ehIQ"
    }, {
        "id": 36,
        "name": "Restauran Sian Lie",
        "lng": 107.6716845,
        "lat": -2.560292,
        "description": "",
        "premium": false,
        "count": 0,
        "category": "restorant",
        "rate": 4.7,
        "photo_reference": ""
    }, {
        "id": 37,
        "name": "Rumah Makan Nuansa Pantai",
        "lng": 107.6692452,
        "lat": -2.5594128,
        "description": "",
        "premium": false,
        "count": 0,
        "category": "restorant",
        "photo_reference": ""
    }, {
        "id": 38,
        "name": "Ratu Seafood",
        "lng": 107.669296,
        "lat": -2.5589857,
        "description": "",
        "premium": false,
        "count": 0,
        "category": "restorant",
        "photo_reference": "CmRaAAAAu0Ygkr2w7Zk4PuvXpVP4mjqWhIMAeqqdEvEm7Ew001xtHab7WyukwULX5DAcCXCwa-4R7Xw_qGZTDjazWiHJOicBob3NhAmQf9bd2bBflxXr0rif3Ml0fea4KugYxbd8EhBmKT1i8ZaCKxq6xz6HU2LAGhS7NbxCzbBhPTh701FORjbrTNQXVQ"
    }, {
        "id": 39,
        "name": "Kelayang Cottages And Resto",
        "lng": 107.6686301,
        "lat": -2.558383499999999,
        "description": "",
        "premium": false,
        "count": 0,
        "category": "restorant",
        "rate": 4,
        "photo_reference": "CmRaAAAA0CKeWhdbBwEpAuYEDR310f3c-3xT-PwDL4Y6p1Ri9rAqQLiXq0lWMAnOL9adj6-f295_QjqwQEjadLy8ONX3n--QeziMrL1Yb51px6FiJ65eEXtAmejYUfpIGQtfjl4gEhDvRiFboHqywR44lbydCR6BGhQYOceJV_D51zHxHhMRrQklErf-wA"
    }, {
        "id": 40,
        "name": "RM Amat",
        "lng": 107.6969861,
        "lat": -2.5626011,
        "description": "",
        "premium": false,
        "count": 0,
        "category": "restorant",
        "rate": 4.4,
        "photo_reference": "CmRaAAAAsXpUZmS1nIkEdn3uWWmtrGDX2YI8_w7qwtEeDZkbtr66hFItbv_1ChQYre21rcXuwvUrAvThodVoSmI3Xd0geBSPwpoPa5g4yGysL4oV2Lokistw8-bcoWwNaarhKJMPEhBWkmSzrdEf2fdnudny1czdGhTtmzsdznExKDXXJxD8gSLZKPfqLA"
    }, {
        "id": 41,
        "name": "RESTAURANT MABAI",
        "lng": 107.6977981,
        "lat": -2.562588,
        "description": "",
        "premium": false,
        "count": 0,
        "category": "restorant",
        "rate": 3.8,
        "photo_reference": "CmRaAAAA3e8wcdrCMEkI3LbdlBtwBZFmj3uueqhLBjqEHNXx6cCHrI6S0THBy8WuK5PRcc4Z1cjwggHrggmsoI9742K3ZAWAluMhUQOLgYZbpEfbJv3My9wYFnOX9xnazat_punBEhAI7iKFg7hKV7VCbkcbzgJKGhRWR0oVRsOQ75q9tgyiU2_4hddwlQ"
    }, {
        "id": 42,
        "name": "Resto Kepayang",
        "lng": 107.652279,
        "lat": -2.5504444,
        "description": "",
        "premium": false,
        "count": 0,
        "category": "restorant",
        "rate": 4.3,
        "photo_reference": "CmRaAAAAs_RpU135wezslg-5MU-1gZ7GiOsuohPEcNdMw_fhChNmrgX47lg1vHExiYbiTqUuIZA5mG1aa0voEKzuEf9MWAU6guE5GjBhhNIjJJIqrd_fDVTf4ThCjSiobvmzebRAEhC-c08C4-5lcdI9A7wwGILDGhSyuS8k-4aHyyJjwv3s521l23Jbkw"
    }, {
        "id": 43,
        "name": "Warung Pojok",
        "lng": 107.7179123,
        "lat": -2.5546941,
        "description": "",
        "premium": false,
        "count": 0,
        "category": "restorant",
        "rate": 3,
        "photo_reference": "CmRaAAAAo-TG4JGAvNaoc83eV9HMEUDNcT2g3b-0IqCmjMQ7VDlTUc24naZ6MiXJpZMObKF7RhyLxUroptCoMHgr-Yd-fbdccl1raUSbwaXjRI840OOVFGXslIrdIdYb9q8A1HZyEhCXlXQ2ao7e_q-Mo-2Rv17xGhRm1eFMnJ__7SrfYf7y58fZo38-vA"
    }, {
        "id": 44,
        "name": "Rumah Makan Seleraku",
        "lng": 107.7182875,
        "lat": -2.5539237,
        "description": "",
        "premium": false,
        "count": 0,
        "category": "restorant",
        "rate": 4,
        "photo_reference": "CmRaAAAAvWOb-6hELenDFgVsH-4wzUjkRqQIeno4IS-o4JuY9hzgc6X6neumLZcffCXXFPtPMQuwGnZnan3KLYN6uQgKieuYNRvHGfQfQDzRwaD_TGBx6E8aqzFaJFwsMaJmfLo5EhCt0DZyhXA2pGVR03gz1bfAGhQpRmYpGTIZfxRu0mJ0y8Ac4HsAxw"
    }, {
        "id": 45,
        "name": "RM cintakasih seafood",
        "lng": 107.7182198,
        "lat": -2.5535784,
        "description": "",
        "premium": false,
        "count": 0,
        "category": "restorant",
        "rate": 5,
        "photo_reference": "CmRaAAAAgIi9n4ZWaA27OReomjqpFBF1Q3yrSr-_6jh4x8Tvo0aXpiu8QCxtV72LQa0bxCK0OD8hmDptzWgfAM7a4nt4BKBQkbXUrpKN_meM3BG1DwYZMRqny1bvQ-6gRsPSG9ZjEhC3rYDh28847Lk0kJU9QQq9GhQKOIuE84ZAaaPvo7Pc6gGxdDgASw"
    }
]
